{"version": 0.6, "generator": "Overpass API 0.7.62.10 2d4cfc48", "osm3s": {"timestamp_osm_base": "2026-02-10T12:23:59Z", "copyright": "The data included in this document is from www.openstreetmap.org. The data is made available under ODbL."}, "elements": [{"type": "node", "id": 449452306, "lat": 28.5187862, "lon": 77.1601524}, {"type": "node", "id": 449452307, "lat": 28.519294, "lon": 77.1610187}, {"type": "node", "id": 449452308, "lat": 28.5197907, "lon": 77.1606353}, {"type": "node", "id": 449452310, "lat": 28.5192402, "lon": 77.1596654}, {"type": "node", "id": 1603162081, "lat": 28.5303435, "lon": 77.2140545}, {"type": "node", "id": 1603162083, "lat": 28.5303354, "lon": 77.214007}, {"type": "node", "id": 1603162085, "lat": 28.5303058, "lon": 77.2140142}, {"type": "node", "id": 1603162087, "lat": 28.5303105, "lon": 77.2140571}, {"type": "node", "id": 1634228301, "lat": 28.527214, "lon": 77.2110986}, {"type": "node", "id": 1634228324, "lat": 28.5266993, "lon": 77.2127139}, {"type": "node", "id": 1634228333, "lat": 28.5280519, "lon": 77.2106559}, {"type": "node", "id": 1634228336, "lat": 28.5281215, "lon": 77.2112297}, {"type": "node", "id": 1634228337, "lat": 28.5283025, "lon": 77.2121912}, {"type": "node", "id": 1634228339, "lat": 28.5281827, "lon": 77.2116591}, {"type": "node", "id": 1634228365, "lat": 28.5280879, "lon": 77.2108108}, {"type": "node", "id": 1634228371, "lat": 28.5263987, "lon": 77.2120434}, {"type": "node", "id": 1634228375, "lat": 28.5282836, "lon": 77.2120985}, {"type": "node", "id": 1741700541, "lat": 28.5262622, "lon": 77.2155775}, {"type": "node", "id": 1741700548, "lat": 28.5266949, "lon": 77.2135007}, {"type": "node", "id": 1741700551, "lat": 28.525806, "lon": 77.2138133}, {"type": "node", "id": 2004003131, "lat": 28.5355876, "lon": 77.2146754}, {"type": "node", "id": 2885438040, "lat": 28.528539, "lon": 77.2128805}, {"type": "node", "id": 2885438041, "lat": 28.5290087, "lon": 77.2148376}, {"type": "node", "id": 2941789665, "lat": 28.4714979, "lon": 77.2170383}, {"type": "node", "id": 2941789668, "lat": 28.471741, "lon": 77.2168676}, {"type": "node", "id": 2941789669, "lat": 28.471813, "lon": 77.2176972}, {"type": "node", "id": 2941789670, "lat": 28.471903, "lon": 77.2173968}, {"type": "node", "id": 2941789671, "lat": 28.4719691, "lon": 77.2175163}, {"type": "node", "id": 2941789672, "lat": 28.4720891, "lon": 77.218479}, {"type": "node", "id": 2941789673, "lat": 28.4720981, "lon": 77.2167652}, {"type": "node", "id": 2941789674, "lat": 28.4720981, "lon": 77.2172568}, {"type": "node", "id": 2941789675, "lat": 28.4721071, "lon": 77.2169393}, {"type": "node", "id": 2941789676, "lat": 28.4721491, "lon": 77.2173217}, {"type": "node", "id": 2941789677, "lat": 28.4722392, "lon": 77.2183083}, {"type": "node", "id": 2941789678, "lat": 28.4722812, "lon": 77.2172261}, {"type": "node", "id": 2941789679, "lat": 28.4723052, "lon": 77.2188682}, {"type": "node", "id": 2941789680, "lat": 28.4726533, "lon": 77.2186838}, {"type": "node", "id": 2941789681, "lat": 28.4727463, "lon": 77.2187589}, {"type": "node", "id": 2941789682, "lat": 28.4729714, "lon": 77.2186156}, {"type": "node", "id": 2941789683, "lat": 28.4731697, "lon": 77.2188397}, {"type": "node", "id": 2941789684, "lat": 28.4736557, "lon": 77.2184954}, {"type": "node", "id": 2941789685, "lat": 28.4741628, "lon": 77.2184442}, {"type": "node", "id": 2941789686, "lat": 28.4742109, "lon": 77.2184238}, {"type": "node", "id": 2941789687, "lat": 28.4747438, "lon": 77.2167218}, {"type": "node", "id": 2941789688, "lat": 28.4747799, "lon": 77.2180809}, {"type": "node", "id": 2941789689, "lat": 28.474816, "lon": 77.2181219}, {"type": "node", "id": 2941789690, "lat": 28.4751173, "lon": 77.2178757}, {"type": "node", "id": 2941789691, "lat": 28.4756077, "lon": 77.2160856}, {"type": "node", "id": 2941789692, "lat": 28.4753337, "lon": 77.2175667}, {"type": "node", "id": 2941789693, "lat": 28.4758048, "lon": 77.2158045}, {"type": "node", "id": 2941850500, "lat": 28.4712356, "lon": 77.216704}, {"type": "node", "id": 2941850701, "lat": 28.4721771, "lon": 77.2157519}, {"type": "node", "id": 2941850702, "lat": 28.4733501, "lon": 77.2140054}, {"type": "node", "id": 2941850703, "lat": 28.4741738, "lon": 77.2131469}, {"type": "node", "id": 2941850704, "lat": 28.4743679, "lon": 77.2128427}, {"type": "node", "id": 2941850705, "lat": 28.4750126, "lon": 77.2136443}, {"type": "node", "id": 2941850706, "lat": 28.4752459, "lon": 77.2150471}, {"type": "node", "id": 2941850707, "lat": 28.4756077, "lon": 77.2132126}, {"type": "node", "id": 2941850708, "lat": 28.4759441, "lon": 77.213139}, {"type": "node", "id": 2941850709, "lat": 28.4760753, "lon": 77.2142006}, {"type": "node", "id": 2941850710, "lat": 28.4762234, "lon": 77.2143963}, {"type": "node", "id": 2941850711, "lat": 28.4767205, "lon": 77.2140009}, {"type": "node", "id": 3585502468, "lat": 28.5191857, "lon": 77.2144072}, {"type": "node", "id": 3585502472, "lat": 28.5191984, "lon": 77.2143194}, {"type": "node", "id": 3585502616, "lat": 28.5193548, "lon": 77.2144387}, {"type": "node", "id": 3585502619, "lat": 28.5193674, "lon": 77.2143509}, {"type": "node", "id": 3585586472, "lat": 28.5220002, "lon": 77.2151359}, {"type": "node", "id": 3585586479, "lat": 28.5220269, "lon": 77.2150143}, {"type": "node", "id": 3585586612, "lat": 28.5221802, "lon": 77.2151871}, {"type": "node", "id": 3585586615, "lat": 28.5222069, "lon": 77.2150655}, {"type": "node", "id": 4328150391, "lat": 28.53312, "lon": 77.2254277, "tags": {"amenity": "hospital", "name": "Pushpawati Singhania Hospital and Research Institute"}}, {"type": "node", "id": 4366252681, "lat": 28.5348772, "lon": 77.2134711}, {"type": "node", "id": 4366252682, "lat": 28.5349832, "lon": 77.2140759}, {"type": "node", "id": 4366253194, "lat": 28.5355193, "lon": 77.2131157}, {"type": "node", "id": 4366253212, "lat": 28.5362191, "lon": 77.2138788}, {"type": "node", "id": 4927143358, "lat": 28.5583994, "lon": 77.2064208, "tags": {"amenity": "hospital", "healthcare": "hospital", "name": "Adiva Hospital"}}, {"type": "node", "id": 5253691568, "lat": 28.5460823, "lon": 77.1973263, "tags": {"amenity": "hospital", "healthcare": "hospital", "name": "Cygnus Orthocare Hospital"}}, {"type": "node", "id": 5258048044, "lat": 28.5436294, "lon": 77.2118358, "tags": {"amenity": "hospital", "name": "Rosewalk - Premium Birthing, Feminine care", "operator": "Rainbow Hospital"}}, {"type": "node", "id": 5277289181, "lat": 28.5434575, "lon": 77.214298, "tags": {"amenity": "hospital", "healthcare": "hospital", "name": "Max Multi Speciality Centre"}}, {"type": "node", "id": 5331323944, "lat": 28.5097683, "lon": 77.2014454, "tags": {"amenity": "hospital", "name": "Balhara's Le Cure Hospital", "phone": "+91-011-3232-9996;+91-93109-40099"}}, {"type": "node", "id": 5799040150, "lat": 28.5158966, "lon": 77.1965361, "tags": {"addr:housenumber": "Khasra Number 242", "addr:place": "Saidulajaib", "addr:postcode": "110030", "addr:subdistrict": "Mehrauli", "amenity": "hospital", "name": "Rural Medical Centre", "phone": "+91-11-2953-4031;+91-11-2953-6833"}}, {"type": "node", "id": 6257609191, "lat": 28.529118, "lon": 77.1900425, "tags": {"addr:district": "South", "addr:full": "NITRD, Sri Aurobindo Marg, Near Qutub minar", "addr:postcode": "110030", "addr:state": "Delhi", "amenity": "hospital", "contact:phone": "1.13E+42", "description": ">500 Bedded Hospital", "healthcare": "hospital", "name": "National Institute of TB and Respiratory Diseases", "source": "OpenGovernmentData"}}, {"type": "node", "id": 6411571309, "lat": 28.4943675, "lon": 77.1836992, "tags": {"amenity": "hospital", "healthcare": "hospital", "name": "Manchanda Hospital"}}, {"type": "node", "id": 6490310065, "lat": 28.523344, "lon": 77.2312921, "tags": {"amenity": "hospital", "healthcare": "hospital", "name": "Mehta Hospital"}}, {"type": "node", "id": 6779419616, "lat": 28.5350359, "lon": 77.2148651, "tags": {"amenity": "hospital", "healthcare": "hospital", "name": "Aakash Hospital"}}, {"type": "node", "id": 7138534304, "lat": 28.5216502, "lon": 77.1812935, "tags": {"addr:district": "South", "addr:full": "1061 /7, Dargah Street, Mehrauli, New Delhi", "addr:postcode": "110030", "addr:state": "Delhi", "amenity": "hospital", "contact:phone": "011 2664 5113", "description": "<100 Bedded Hospital", "name": "Aman Medical Centre", "source": "OpenGovernmentData"}}, {"type": "node", "id": 7138534316, "lat": 28.5597233, "lon": 77.2005001, "tags": {"addr:district": "South", "addr:full": "B-7 Ext./126A, Safdarjung Enclave, Arjun Nagar, New Delhi, Delhi 110029", "addr:postcode": "110029", "addr:state": "Delhi", "amenity": "hospital", "contact:phone": "011 2619 4000", "description": "<100 Bedded Hospital", "name": "Sukhmani Hospital", "source": "OpenGovernmentData"}}, {"type": "node", "id": 7138534317, "lat": 28.5372268, "lon": 77.2149447, "tags": {"addr:district": "South", "addr:full": "Near Post Office, 100, Malviya Nagar, Khirki Extension, Malviya Nagar", "addr:postcode": "110017", "addr:state": "Delhi", "amenity": "hospital", "contact:phone": "26689911", "description": "<100 Bedded Hospital", "name": "Vardaan Hospital", "source": "OpenGovernmentData"}}, {"type": "node", "id": 7138534325, "lat": 28.5520278, "lon": 77.2080381, "tags": {"addr:district": "South", "addr:full": "Likhas Nursing Home,D-62, Hauz Khas, Delhi - 110016", "addr:postcode": "110016", "addr:state": "Delhi", "amenity": "hospital", "contact:phone": "2659203", "description": "<100 Bedded Hospital", "name": "Leekha Nursing Home", "source": "OpenGovernmentData"}}, {"type": "node", "id": 7138534328, "lat": 28.5241613, "lon": 77.1788654, "tags": {"addr:district": "South", "addr:full": "1/113, Desu Road, Near Dreamland School, Mehrauli, New Delhi", "addr:postcode": "110030", "addr:state": "Delhi", "amenity": "hospital", "check_date": "2024-05-26", "contact:phone": "011 2664 3304", "internet_access": "no", "name": "Bhagwati Hospital", "name:en": "Bhagwati Hospital", "name:hi": "\u092d\u0917\u0935\u0924\u0940 \u0905\u0938\u094d\u092a\u0924\u093e\u0932", "operator:type": "private", "source": "OpenGovernmentData", "wheelchair": "yes"}}, {"type": "node", "id": 7138534339, "lat": 28.5374555, "lon": 77.1810712, "tags": {"addr:district": "South", "addr:full": "B-33-34, Qutab Institutional Area, Katwaria Sarai", "addr:postcode": "110016", "addr:state": "Delhi", "amenity": "hospital", "contact:phone": "47667100", "name": "Medeor Hospital", "source": "OpenGovernmentData"}}, {"type": "node", "id": 7138534385, "lat": 28.5427709, "lon": 77.2073754, "tags": {"addr:district": "South", "addr:full": "Panchsheel Enclave, No. 7/5, Sarva Priya Vihar, New Delhi, Delhi 110016", "addr:postcode": "110016", "addr:state": "Delhi", "amenity": "hospital", "contact:phone": "011 4727 2800", "description": "<100 Bedded Hospital", "healthcare": "hospital", "name": "Healing Touch Hospital", "source": "OpenGovernmentData"}}, {"type": "node", "id": 7138534395, "lat": 28.5358718, "lon": 77.2091623, "tags": {"addr:district": "South", "addr:full": "15/199, Geetanjali Marg, Block E, Malviya Nagar, New Delhi", "addr:postcode": "110017", "addr:state": "Delhi", "amenity": "hospital", "contact:phone": "1126680247", "description": "<100 Bedded Hospital", "name": "Sunil Hospital and Nursing Home", "source": "OpenGovernmentData"}}, {"type": "node", "id": 7138534407, "lat": 28.5347579, "lon": 77.2083916, "tags": {"addr:district": "South", "addr:full": "11/137,138, Malviya Nagar, New Delhi", "addr:postcode": "110017", "addr:state": "Delhi", "amenity": "hospital", "contact:phone": "2668 3681", "description": "<100 Bedded Hospital", "name": "Vibhu Nursing Home", "source": "OpenGovernmentData"}}, {"type": "node", "id": 7138534411, "lat": 28.5412998, "lon": 77.1864475, "tags": {"addr:district": "South", "addr:full": "Satyam Medical Centre, 115/1, Katwaria Sarai, New Delhi", "addr:postcode": "110016", "addr:state": "Delhi", "amenity": "hospital", "contact:phone": "1141688372", "description": "<100 Bedded Hospital", "name": "Satyam Medical Centre", "source": "OpenGovernmentData"}}, {"type": "node", "id": 7498553877, "lat": 28.4851071, "lon": 77.1938033, "tags": {"amenity": "hospital", "healthcare": "hospital", "name": "NDMS Park"}}, {"type": "node", "id": 7544955434, "lat": 28.519682, "lon": 77.1733997, "tags": {"addr:district": "South Delhi", "addr:full": "602, Kishangarh - Mehrauli Road, Islam Colony, Mehrauli", "addr:postcode": "110030", "addr:state": "Delhi", "amenity": "hospital", "healthcare": "hospital", "name": "Gendox Hospital", "source": "Local Knowledge"}}, {"type": "node", "id": 7544955436, "lat": 28.5352441, "lon": 77.2079327, "tags": {"addr:district": "South Delhi", "addr:full": "B-35, Shivalik, Panchsheel Geetanjali Road, Opp. Malviya Nagar", "addr:postcode": "110017", "addr:state": "Delhi", "amenity": "hospital", "name": "Vashishta Clinics & Hospital", "source": "Local Knowledge"}}, {"type": "node", "id": 7544955447, "lat": 28.5074677, "lon": 77.1848394, "tags": {"addr:district": "South Delhi", "addr:full": "100 Feet Road, Chhatarpur Hills, Dr Ambedkar Colony, Chhatarpur", "addr:postcode": "110074", "addr:state": "Delhi", "amenity": "hospital", "name": "K.R. Hospital", "source": "Local Knowledge"}}, {"type": "node", "id": 7544955449, "lat": 28.5324257, "lon": 77.2026545, "tags": {"addr:district": "South Delhi", "addr:full": "1, Nav Jeevan Vihar, Shivalik, Geetanjali Marg, Adchini", "addr:postcode": "110017", "addr:state": "Delhi", "amenity": "hospital", "name": "Neptune Hospital", "source": "Local Knowledge"}}, {"type": "node", "id": 7544955457, "lat": 28.5083921, "lon": 77.2314148, "tags": {"addr:district": "South Delhi", "addr:full": "F-86-89, Pocket C, Jawahar Park, Khanpur", "addr:postcode": "110062", "addr:state": "Delhi", "amenity": "hospital", "name": "Orthostar Hospital", "source": "Local Knowledge"}}, {"type": "node", "id": 7544955462, "lat": 28.4943274, "lon": 77.1833094, "tags": {"addr:district": "South Delhi", "addr:full": "203/A, Chhattarpur Ext Road, Block F, Block G, Chhatarpur", "addr:postcode": "110074", "addr:state": "Delhi", "amenity": "hospital", "name": "Yogmaya Multispeciality Hospital", "source": "Local Knowledge"}}, {"type": "node", "id": 7544955472, "lat": 28.5109301, "lon": 77.2407796, "tags": {"addr:district": "South Delhi", "addr:full": "BSF campus, Tigri, Sangam Vihar", "addr:postcode": "110062", "addr:state": "Delhi", "amenity": "hospital", "healthcare": "hospital", "name": "BSF Hospital", "source": "Local Knowledge"}}, {"type": "node", "id": 7544955474, "lat": 28.5118287, "lon": 77.2346317, "tags": {"addr:district": "South Delhi", "addr:full": "IFFCO, Near Mother Dairy, Khanpur Extension, Sangam Vihar", "addr:postcode": "110062", "addr:state": "Delhi", "amenity": "hospital", "healthcare": "hospital", "name": "Bal Kishan Memorial Hospital", "source": "Local Knowledge"}}, {"type": "node", "id": 7544955480, "lat": 28.500025, "lon": 77.237142, "tags": {"addr:district": "South Delhi", "addr:full": "C1-270, Sangam Vihar, Near Holy Chowk, Devli High School Road", "addr:postcode": "110080", "addr:state": "Delhi", "amenity": "hospital", "name": "Kunj Eye Hospital", "source": "Local Knowledge"}}, {"type": "node", "id": 7544955490, "lat": 28.522116, "lon": 77.215201, "tags": {"addr:district": "South Delhi", "addr:full": "J-293, Saket Road, Block J, Saket", "addr:postcode": "110017", "addr:state": "Delhi", "amenity": "hospital", "name": "Sawan Neelu Angel's Multispeciality Hospital", "source": "Local Knowledge"}}, {"type": "node", "id": 7544955493, "lat": 28.5104176, "lon": 77.2374101, "tags": {"addr:district": "South Delhi", "addr:full": "Tigri Road, Tigri Colony, Tigri, Sangam Vihar", "addr:postcode": "110044", "addr:state": "Delhi", "amenity": "hospital", "healthcare": "hospital", "name": "Arpan Hospital", "source": "Local Knowledge"}}, {"type": "node", "id": 7544955496, "lat": 28.5193612, "lon": 77.1743007, "tags": {"addr:district": "South Delhi", "addr:full": "173C, Kishangarh - Mehrauli Road, Islam Colony, Mehrauli", "addr:postcode": "110030", "addr:state": "Delhi", "amenity": "hospital", "healthcare": "hospital", "name": "Vikas Hospital", "source": "Local Knowledge"}}, {"type": "node", "id": 7544955500, "lat": 28.5221871, "lon": 77.242704, "tags": {"addr:district": "South Delhi", "addr:full": "Block 14, Dakshin Puri Extension, Dakshinpuri", "addr:postcode": "110062", "addr:state": "Delhi", "amenity": "hospital", "name": "AIIMS Urban Health Centre", "source": "Local Knowledge"}}, {"type": "node", "id": 7544955504, "lat": 28.5063405, "lon": 77.231747, "tags": {"addr:district": "South Delhi", "addr:full": "C-201, Devli Road, Jawahar Park, Khanpur", "addr:postcode": "110062", "addr:state": "Delhi", "amenity": "hospital", "name": "Dr. Sunder Lal Memorial Hospital", "source": "Local Knowledge"}}, {"type": "node", "id": 7544955518, "lat": 28.535139, "lon": 77.2223229, "tags": {"addr:district": "South Delhi", "addr:full": "B-81, Near A P J SCHOOL, Panchsheel Vihar, Sheikh Sarai", "addr:postcode": "110017", "addr:state": "Delhi", "amenity": "hospital", "name": "Adarsh Hospital", "source": "Local Knowledge"}}, {"type": "node", "id": 7544955520, "lat": 28.5253365, "lon": 77.2363897, "tags": {"addr:district": "South Delhi", "addr:full": "8/217, Dakshin Puri Ext, Maharishi Balmiki Road", "addr:postcode": "110062", "addr:state": "Delhi", "amenity": "hospital", "name": "Dhan Devi Charitable Hospital", "source": "Local Knowledge"}}, {"type": "node", "id": 7544955524, "lat": 28.5001805, "lon": 77.1843915, "tags": {"addr:district": "South Delhi", "addr:full": "Plot No, 8, Chattarpur Mandir Road, Dr Ambedkar Colony, Sat Bari", "addr:postcode": "110074", "addr:state": "Delhi", "amenity": "hospital", "name": "Apex Hospital", "source": "Local Knowledge"}}, {"type": "node", "id": 7544955525, "lat": 28.5114808, "lon": 77.202496, "tags": {"addr:district": "South Delhi", "addr:full": "Block B, Bees Sutri Harijan Basti, Khanpur", "addr:postcode": "110030", "addr:state": "Delhi", "amenity": "hospital", "name": "Balak Ram Hospital", "source": "Local Knowledge"}}, {"type": "node", "id": 12046096383, "lat": 28.5223965, "lon": 77.2383804, "tags": {"addr:street": "Maharishi Valmiki Marg", "amenity": "hospital", "check_date": "2024-07-11", "healthcare": "hospital", "name": "Ambedkar Nagar Hospital", "operator:type": "government"}}, {"type": "node", "id": 12492510479, "lat": 28.5434864, "lon": 77.2028922}, {"type": "node", "id": 12532394416, "lat": 28.543299, "lon": 77.202765}, {"type": "node", "id": 12532394417, "lat": 28.5432141, "lon": 77.2029915}, {"type": "node", "id": 12532394418, "lat": 28.5430916, "lon": 77.2029537}, {"type": "node", "id": 12532394419, "lat": 28.5429845, "lon": 77.2034354}, {"type": "node", "id": 12532394420, "lat": 28.5429739, "lon": 77.2036592}, {"type": "node", "id": 12532394421, "lat": 28.5433162, "lon": 77.2036581}, {"type": "way", "id": 38170365, "nodes": [449452306, 449452307, 449452308, 449452310, 449452306], "tags": {"addr:city": "New Delhi", "addr:housenumber": "Sector B1, Vasant Kunj", "addr:postcode": "110070", "addr:street": "Aruna Asif Ali Marg", "amenity": "hospital", "emergency": "yes", "landuse": "commercial", "name": "Fortis Hospital", "wheelchair": "yes"}}, {"type": "way", "id": 147110696, "nodes": [1603162087, 1603162085, 1603162083, 1603162081, 1603162087], "tags": {"amenity": "hospital", "designation": "General Physician", "emergency": "yes", "name": "Shamsi Clinic"}}, {"type": "way", "id": 150520027, "nodes": [1634228333, 1634228301, 1634228371, 1634228324, 1634228337, 1634228375, 1634228339, 1634228336, 1634228365, 1634228333], "tags": {"addr:housenumber": "2", "addr:postcode": "110017", "addr:street": "Press Enclave Marg", "amenity": "hospital", "barrier": "wall", "emergency": "yes", "healthcare": "hospital", "name": "MAX Hospital", "url": "http://www.maxhealthcare.in/"}}, {"type": "way", "id": 284837724, "nodes": [2885438040, 1741700548, 1741700551, 1741700541, 2885438041, 2885438040], "tags": {"addr:district": "South", "addr:full": "Press Enclave Marg, Saket District Centre, Saket Institutional Area, Saket", "addr:postcode": "110017", "addr:state": "Delhi", "amenity": "hospital", "barrier": "wall", "contact:phone": "011 4069 9999", "healthcare": "hospital", "name": "Saket City Hospital", "source": "OpenGovernmentData"}}, {"type": "way", "id": 290678079, "nodes": [2941850500, 2941850701, 2941850702, 2941850703, 2941850704, 2941850705, 2941850707, 2941850708, 2941850711, 2941850710, 2941850709, 2941850706, 2941789693, 2941789691, 2941789687, 2941789692, 2941789690, 2941789689, 2941789688, 2941789686, 2941789685, 2941789684, 2941789683, 2941789682, 2941789681, 2941789680, 2941789679, 2941789672, 2941789677, 2941789669, 2941789671, 2941789670, 2941789674, 2941789676, 2941789678, 2941789675, 2941789673, 2941789668, 2941789665, 2941850500], "tags": {"amenity": "hospital", "barrier": "wall", "landuse": "military", "name": "Central Armed Police Forces Institute of Medical Sciences"}}, {"type": "way", "id": 352781774, "nodes": [3585502619, 3585502616, 3585502468, 3585502472, 3585502619], "tags": {"addr:city": "New Delhi", "addr:housenumber": "J-95", "addr:postcode": "110017", "addr:street": "1st Floor, Saket", "amenity": "hospital", "description": "Holistic Skin Care, A popular dermatology clinic in Saket, Delhi led by Dr. Sonali Chaudhary, merges medical knowledge with natural remedies. Dr. Sonali Chaudhary, specialized in skin health, emphasizes inner well-being for outer beauty. Offering treatmen", "email": "Info@holisticskin.care", "healthcare": "hospital", "healthcare:speciality": "dermatology", "mobile": "9999681113", "name": "Holistic Skin Care", "website": "https://holisticskincare.co.in/"}}, {"type": "way", "id": 352789067, "nodes": [3585586615, 3585586612, 3585586472, 3585586479, 3585586615], "tags": {"addr:district": "South", "addr:full": "J-293, Saket, New Delhi, Delhi 110017", "addr:postcode": "110017", "addr:state": "Delhi", "amenity": "hospital", "building": "yes", "contact:phone": "011 4319 1300", "description": "<100 Bedded Hospital", "name": "Sawan Neelu Angel's Multispeciality Hospital", "source": "OpenGovernmentData"}}, {"type": "way", "id": 438994150, "nodes": [4366253212, 2004003131, 4366252682, 4366252681, 4366253194, 4366253212], "tags": {"addr:district": "South", "addr:full": "Malviya Nagar, New Delhi", "addr:place": "Malviya Nagar", "addr:postcode": "110017", "addr:state": "Delhi", "amenity": "hospital", "contact:phone": "1126689999", "emergency": "yes", "healthcare": "hospital", "name": "Pt. Madan Mohan Malviya Hospital", "name:etymology:wikidata": "Q2721496", "source": "OpenGovernmentData"}}, {"type": "way", "id": 1354255639, "nodes": [12492510479, 12532394416, 12532394417, 12532394418, 12532394419, 12532394420, 12532394421, 12492510479], "tags": {"amenity": "hospital", "healthcare": "hospital", "name": "MCW Hauz Khas"}}]}