{"version": 0.6, "generator": "Overpass API 0.7.62.10 2d4cfc48", "osm3s": {"timestamp_osm_base": "2026-02-10T12:42:16Z", "copyright": "The data included in this document is from www.openstreetmap.org. The data is made available under ODbL."}, "elements": [{"type": "node", "id": 1825289628, "lat": 28.7146087, "lon": 77.1118501}, {"type": "node", "id": 1825425863, "lat": 28.6932326, "lon": 77.0817944}, {"type": "node", "id": 1825425864, "lat": 28.6932603, "lon": 77.0788983}, {"type": "node", "id": 1825425875, "lat": 28.6940863, "lon": 77.0790308}, {"type": "node", "id": 1825425883, "lat": 28.6946578, "lon": 77.0818693}, {"type": "node", "id": 1825425884, "lat": 28.6946832, "lon": 77.0799131}, {"type": "node", "id": 1825425893, "lat": 28.6951205, "lon": 77.0799072}, {"type": "node", "id": 1825425897, "lat": 28.6952455, "lon": 77.0792939}, {"type": "node", "id": 3043573339, "lat": 28.7161511, "lon": 77.1132272}, {"type": "node", "id": 3043573340, "lat": 28.7139117, "lon": 77.1112477}, {"type": "node", "id": 3043573341, "lat": 28.7118651, "lon": 77.1141927}, {"type": "node", "id": 3043573342, "lat": 28.7141281, "lon": 77.1162044}, {"type": "node", "id": 3043574641, "lat": 28.717586, "lon": 77.1111189}, {"type": "node", "id": 3043574642, "lat": 28.7159253, "lon": 77.1096384}, {"type": "node", "id": 3043574643, "lat": 28.7152055, "lon": 77.1106254}, {"type": "node", "id": 3043574644, "lat": 28.7168992, "lon": 77.1121757}, {"type": "node", "id": 4511567590, "lat": 28.7028126, "lon": 77.0958863, "tags": {"amenity": "hospital", "name": "Asha kiran mental hospital", "name:en": "Asha kiran mental hospital"}}, {"type": "node", "id": 6076117385, "lat": 28.7105191, "lon": 77.1069394, "tags": {"addr:city": "Rohini", "addr:housenumber": "d7/224", "addr:postcode": "110085", "addr:state": "Delhi", "addr:street": "Sector 6", "amenity": "clinic", "contact:phone": "+9101127054943", "healthcare:speciality": "dentist", "name": "Dental Health Point", "opening_hours": "Mo-Sa 09:00-12:00, Mo-Sa 17:00-20:00", "operator": "Dr. Renu Garg"}}, {"type": "node", "id": 6390207096, "lat": 28.712011, "lon": 77.1177846, "tags": {"amenity": "clinic"}}, {"type": "node", "id": 7138632140, "lat": 28.7037242, "lon": 77.1025419, "tags": {"addr:district": "North West", "addr:full": "G-26 Block, Sector-03, Rohini", "addr:postcode": "110085", "addr:state": "Delhi", "amenity": "clinic", "contact:phone": "27510385", "description": "Maternity Home", "health_facility:type": "dispensary", "healthcare": "centre", "name": "Delhi Government Dispensary, Rohini, Sec 3", "source": "OpenGovernmentData"}}, {"type": "node", "id": 7138632150, "lat": 28.7113776, "lon": 77.1176777, "tags": {"addr:district": "North West", "addr:full": "Brahmaputra Marg, Pocket 15, Sector 7D, Rohini", "addr:postcode": "110085", "addr:state": "Delhi", "amenity": "hospital", "contact:phone": "27044007", "healthcare": "hospital", "name": "MCD Maternity Government Hospital", "source": "OpenGovernmentData"}}, {"type": "node", "id": 7138632155, "lat": 28.6897352, "lon": 77.0858096, "tags": {"addr:district": "North West", "addr:full": "R-226/227, Mangolpuri, Mangolpuri", "addr:postcode": "110083", "addr:state": "Delhi", "amenity": "hospital", "contact:phone": "27916689", "description": "<100 Bedded Hospital", "name": "Jiwan Charitable Hospital", "source": "OpenGovernmentData"}}, {"type": "node", "id": 7138632172, "lat": 28.7033698, "lon": 77.0419467, "tags": {"addr:district": "North West", "addr:full": "Seed PUHC Prem Nagar 3, B-41, Agar Nagar", "addr:postcode": "110081", "addr:state": "Delhi", "amenity": "clinic", "description": "Dispensaries", "health_facility:type": "dispensary", "healthcare": "centre", "name": "SPUHC Prem Nagar 3", "source": "OpenGovernmentData"}}, {"type": "node", "id": 7138632195, "lat": 28.6946654, "lon": 77.0639763, "tags": {"addr:district": "North West", "addr:full": "Sultanpuri, Kirari", "addr:postcode": "110086", "addr:state": "Delhi", "amenity": "clinic", "contact:phone": "25967788", "description": "Dispensaries", "health_facility:type": "dispensary", "healthcare": "centre", "name": "DGD Kirari", "source": "OpenGovernmentData"}}, {"type": "node", "id": 7138632201, "lat": 28.6996241, "lon": 77.1002822, "tags": {"addr:district": "North West", "addr:full": "Delhi Govt Dispensary, Plot No.2, Sector-02, Rohini", "addr:postcode": "110085", "addr:state": "Delhi", "amenity": "clinic", "contact:phone": "27515024", "description": "Dispensaries", "health_facility:type": "dispensary", "healthcare": "centre", "name": "Aam Aadmi Polyclinic, Rohini Sector2", "source": "OpenGovernmentData"}}, {"type": "node", "id": 7138632215, "lat": 28.7144666, "lon": 77.0274483, "tags": {"addr:district": "North West", "addr:full": "Madanpur Dabas Village P.O. Ranikhera", "addr:postcode": "110081", "addr:state": "Delhi", "amenity": "clinic", "contact:phone": "25951099", "description": "Dispensaries", "health_facility:type": "dispensary", "healthcare": "centre", "name": "DGD Madanpur Dabas", "source": "OpenGovernmentData"}}, {"type": "node", "id": 7138632222, "lat": 28.6926748, "lon": 77.0937042, "tags": {"addr:district": "North West", "addr:full": "S-Block, Mangolpuri", "addr:postcode": "110083", "addr:state": "Delhi", "amenity": "clinic", "contact:phone": "27911080", "description": "MCD Center", "health_facility:type": "dispensary", "healthcare": "centre", "name": "Dispensary Of M.C.D. Mangolpuri S Block", "source": "OpenGovernmentData"}}, {"type": "node", "id": 7138632231, "lat": 28.6978758, "lon": 77.0764123, "tags": {"addr:district": "North West", "addr:full": "Delhi Govt Dispensary, B- Block, Sultanpuri", "addr:postcode": "110086", "addr:state": "Delhi", "amenity": "clinic", "contact:phone": "25968044", "description": "Dispensaries", "health_facility:type": "dispensary", "healthcare": "centre", "name": "DGD Sultanpuri", "source": "OpenGovernmentData"}}, {"type": "node", "id": 7138632234, "lat": 28.7013032, "lon": 77.0983471, "tags": {"addr:district": "North West", "addr:full": "B-859-70, Avantika, Sec-01, Rohini", "addr:postcode": "110085", "addr:state": "Delhi", "amenity": "hospital", "contact:phone": "27517874", "description": "<100 Bedded Hospital", "healthcare": "hospital", "name": "Family Hospital", "source": "OpenGovernmentData"}}, {"type": "node", "id": 7138632243, "lat": 28.7082869, "lon": 77.1010425, "tags": {"addr:district": "North West", "addr:full": "9, Pocket A-1, Pocket 3, Sector 4, Rohini", "addr:postcode": "110085", "addr:state": "Delhi", "amenity": "clinic", "contact:phone": "27045890", "description": "Polyclinic", "name": "Aam Aadhmi Polyclinic Rohini Sec 4", "source": "OpenGovernmentData"}}, {"type": "node", "id": 7138632244, "lat": 28.712357, "lon": 77.081262, "tags": {"addr:district": "North West", "addr:full": "U-1/76, Budh Vihar", "addr:postcode": "110086", "addr:state": "Delhi", "amenity": "hospital", "contact:phone": "27537967", "description": "District Hospital", "name": "Brahm Shakti Hospital", "source": "OpenGovernmentData"}}, {"type": "node", "id": 7138632255, "lat": 28.6932408, "lon": 77.0932851, "tags": {"addr:district": "North West", "addr:full": "A-Block, Mangolpuri", "addr:postcode": "110083", "addr:state": "Delhi", "amenity": "clinic", "contact:phone": "27922997", "description": "Dispensaries", "health_facility:type": "dispensary", "healthcare": "centre", "name": "DGD Mangol Puri", "source": "OpenGovernmentData"}}, {"type": "node", "id": 7138632260, "lat": 28.697886, "lon": 77.0763551, "tags": {"addr:district": "North West", "addr:full": "B-3, Janta quarter, Sultanpuri", "addr:postcode": "110086", "addr:state": "Delhi", "amenity": "clinic", "description": "Dispensaries", "health_facility:type": "dispensary", "healthcare": "centre", "name": "Dispensary Sultanpuri B Block", "source": "OpenGovernmentData"}}, {"type": "node", "id": 7138632263, "lat": 28.7012483, "lon": 77.0988184, "tags": {"addr:district": "North West", "addr:full": "A-777-778, Main Market, Avantika, Sector-02, Rohini", "addr:postcode": "110085", "addr:state": "Delhi", "amenity": "hospital", "contact:phone": "27525262", "description": "<100 Bedded Hospital", "healthcare": "hospital", "name": "Kanta Sethi Hospital", "source": "OpenGovernmentData"}}, {"type": "node", "id": 7138632266, "lat": 28.7036002, "lon": 77.0248944, "tags": {"addr:district": "North West", "addr:full": "DGD Building, Rani Khera Village", "addr:postcode": "110081", "addr:state": "Delhi", "amenity": "clinic", "contact:phone": "25954508", "description": "Dispensaries", "health_facility:type": "dispensary", "healthcare": "centre", "name": "DGD Rani Khera", "source": "OpenGovernmentData"}}, {"type": "node", "id": 7138632271, "lat": 28.7061619, "lon": 77.0617681, "tags": {"addr:district": "North West", "addr:full": "Plot no. 89, Khasra No. 518, Pratap Vihar-II, Suleman Nagar, Kirari", "addr:postcode": "110086", "addr:state": "Delhi", "amenity": "clinic", "contact:phone": "25180543", "health_facility:type": "dispensary", "healthcare": "centre", "name": "NRHM Dispensary Aman Vihar", "source": "OpenGovernmentData"}}, {"type": "node", "id": 7543715773, "lat": 28.6890276, "lon": 77.0857544, "tags": {"addr:district": "West Delhi", "addr:full": "Block R, Mangolpuri S Block, Katter Market Road", "addr:postcode": "110083", "addr:state": "Delhi", "amenity": "hospital", "name": "Dhruv Hospital", "source": "Local Knowledge"}}, {"type": "node", "id": 7545203137, "lat": 28.6989183, "lon": 77.0530355, "tags": {"addr:district": "North West Delhi", "addr:full": "Mubarak Pur Road, Narayan Vihar, Kirari Suleman Nagar", "addr:postcode": "110086", "addr:state": "Delhi", "amenity": "hospital", "name": "Raj Poly Clinic Hospital", "source": "Local Knowledge"}}, {"type": "node", "id": 7545203146, "lat": 28.6969375, "lon": 77.0867174, "tags": {"addr:district": "North West Delhi", "addr:full": "Block V, Block K, Mangolpuri S Block, Maharishi Valmiki Marg", "addr:postcode": "110083", "addr:state": "Delhi", "amenity": "doctors", "name": "Dr. Mahesh Kapoor", "source": "Local Knowledge"}}, {"type": "node", "id": 7545203148, "lat": 28.712718, "lon": 77.119198, "tags": {"addr:district": "North West Delhi", "addr:full": "Jai Apartments, Sector 9, Metro Pillar #417 168, Rohini", "addr:postcode": "110085", "addr:state": "Delhi", "amenity": "clinic", "healthcare": "clinic", "name": "North Delhi Diabetes Center", "source": "Local Knowledge"}}, {"type": "node", "id": 7545203151, "lat": 28.695522, "lon": 77.0591, "tags": {"addr:district": "North West Delhi", "addr:full": "Block I - 454, Prem Nagar, 2nd Main Mubarakhpur Road, Kirari Road", "addr:postcode": "110086", "addr:state": "Delhi", "amenity": "hospital", "name": "Kesar Hospital", "source": "Local Knowledge"}}, {"type": "node", "id": 7545203160, "lat": 28.704823, "lon": 77.043677, "tags": {"addr:district": "North West Delhi", "addr:full": "Phase 2, Inder Enclave, Kirari Suleman Nagar", "addr:postcode": "110081", "addr:state": "Delhi", "amenity": "hospital", "name": "Gahlot Hospital", "source": "Local Knowledge"}}, {"type": "node", "id": 7545203165, "lat": 28.7101355, "lon": 77.1166883, "tags": {"addr:district": "North West Delhi", "addr:full": "D16-66, Shiva Road, Pocket 16, Sector 7D, Rohini", "addr:postcode": "110085", "addr:state": "Delhi", "amenity": "clinic", "name": "Atul Path Labs and Eye Clinic", "source": "Local Knowledge"}}, {"type": "node", "id": 7545203172, "lat": 28.6952239, "lon": 77.0549322, "tags": {"addr:district": "North West Delhi", "addr:full": "239, Block M, Prem Nagar I", "addr:postcode": "110086", "addr:state": "Delhi", "amenity": "hospital", "name": "Jeevandan Hospital", "source": "Local Knowledge"}}, {"type": "node", "id": 7545203177, "lat": 28.698019, "lon": 77.054191, "tags": {"addr:district": "North West Delhi", "addr:full": "Block W, Prem Nagar II, Kirari Suleman Nagar", "addr:postcode": "110086", "addr:state": "Delhi", "amenity": "hospital", "name": "Jeevan Daan Hospital", "source": "Local Knowledge"}}, {"type": "node", "id": 7545203188, "lat": 28.6997775, "lon": 77.0513459, "tags": {"addr:district": "North West Delhi", "addr:full": "A-16, Khasra No. 148, Main Mubarak pur Road ll, Prem Nagar", "addr:postcode": "110086", "addr:state": "Delhi", "amenity": "hospital", "name": "Marg Hospital", "source": "Local Knowledge"}}, {"type": "node", "id": 7545203202, "lat": 28.6912301, "lon": 77.0902773, "tags": {"addr:district": "North West Delhi", "addr:full": "Shop No:p-1/16-17, D.D.A Market, Block P, Mangolpuri S Block", "addr:postcode": "110083", "addr:state": "Delhi", "amenity": "hospital", "name": "Tyagi Hospital", "source": "Local Knowledge"}}, {"type": "node", "id": 7545203205, "lat": 28.711308, "lon": 77.117682, "tags": {"addr:district": "North West Delhi", "addr:full": "D- 16/ 434, Brahmkumaris Marg, Pocket 16, Sector 7D, Rohini", "addr:postcode": "110085", "addr:state": "Delhi", "amenity": "clinic", "healthcare": "clinic", "name": "Lala Hansraj Gupta Polyclinic", "source": "Local Knowledge"}}, {"type": "node", "id": 7545203226, "lat": 28.6992105, "lon": 77.0965459, "tags": {"addr:district": "North West Delhi", "addr:full": "Star School, 5, Sir Chotu Ram Marg, Opp Pole, Avantika, Sector 1, Rohini", "addr:postcode": "110085", "addr:state": "Delhi", "amenity": "hospital", "name": "O.P. Memorial Hospital", "source": "Local Knowledge"}}, {"type": "node", "id": 7545203229, "lat": 28.6958743, "lon": 77.0588261, "tags": {"addr:district": "North West Delhi", "addr:full": "Niti Vihar, Mubarakhpur Main Road, Sultanpuri", "addr:postcode": "110086", "addr:state": "Delhi", "amenity": "hospital", "name": "Arogya Care", "source": "Local Knowledge"}}, {"type": "node", "id": 7545203258, "lat": 28.696354, "lon": 77.053765, "tags": {"addr:district": "North West Delhi", "addr:full": "Block R, Prem Nagar I", "addr:postcode": "110086", "addr:state": "Delhi", "amenity": "hospital", "name": "Kukreja Hospital", "source": "Local Knowledge"}}, {"type": "node", "id": 7545203260, "lat": 28.6995752, "lon": 77.0963422, "tags": {"addr:district": "North West Delhi", "addr:full": "156, Sector 1, Rohini, Avantika", "addr:postcode": "110085", "addr:state": "Delhi", "amenity": "hospital", "name": "New Rohini Hospital", "source": "Local Knowledge"}}, {"type": "node", "id": 7545203265, "lat": 28.6992877, "lon": 77.0962764, "tags": {"addr:district": "North West Delhi", "addr:full": "B-00 157, Avantika, Sector 1, Kanjhawala Road, Rohini", "addr:postcode": "110085", "addr:state": "Delhi", "amenity": "hospital", "name": "Sanjeevan Surgical Centre", "source": "Local Knowledge"}}, {"type": "node", "id": 9480291391, "lat": 28.71891, "lon": 77.0648699}, {"type": "node", "id": 9480291392, "lat": 28.7179776, "lon": 77.0662549}, {"type": "node", "id": 9480291393, "lat": 28.7176304, "lon": 77.0659604}, {"type": "node", "id": 9480291394, "lat": 28.7185367, "lon": 77.0645353}, {"type": "node", "id": 11015331824, "lat": 28.7185093, "lon": 77.0645784}, {"type": "node", "id": 11409229305, "lat": 28.7361202, "lon": 77.109253, "tags": {"amenity": "clinic", "contact:mobile": "+91-98997-03838", "healthcare": "clinic", "healthcare:speciality": "cosmetology;plastic_surgery", "level": "0", "name": "Jindal Cosmetology and Plastic Surgery", "opening_hours": "Mo-Sa 17:30-19:30"}}, {"type": "node", "id": 11409229308, "lat": 28.7361385, "lon": 77.109236, "tags": {"amenity": "clinic", "contact:mobile": "+91-98995-00094", "contact:phone": "+91-11-4984-7208", "healthcare": "clinic", "healthcare:speciality": "ophthalmology", "level": "0", "name": "Jindal Eye Care", "opening_hours": "Mo-Sa 12:00-14:00, 17:30-19:30"}}, {"type": "way", "id": 171527949, "nodes": [1825425864, 1825425863, 1825425883, 1825425884, 1825425893, 1825425897, 1825425875, 1825425864], "tags": {"addr:district": "North West", "addr:full": "Block S, Mangolpuri, Delhi", "addr:postcode": "110083", "addr:state": "Delhi", "amenity": "hospital", "name": "Sanjay Gandhi Memorial Hospital", "name:etymology:wikidata": "Q730045", "source": "OpenGovernmentData"}}, {"type": "way", "id": 300260591, "nodes": [3043573339, 1825289628, 3043573340, 3043573341, 3043573342, 3043573339], "tags": {"addr:city": "Sector - 5, Rohini, Delhi", "addr:district": "North West", "addr:full": "Sector 6, Rohini, Near Rohini West Metro Station", "addr:postcode": "110085", "addr:state": "Delhi", "amenity": "hospital", "contact:phone": "1127055585", "emergency": "yes", "healthcare": "hospital", "name": "Doctor Baba Saheb Ambedkar Hospital", "name:etymology:wikidata": "Q231690", "source": "OpenGovernmentData"}}, {"type": "way", "id": 300260758, "nodes": [3043574641, 3043574642, 3043574643, 3043574644, 3043574641], "tags": {"addr:city": "Sector - 5, Rohini, Delhi", "addr:postcode": "110085", "amenity": "hospital", "healthcare": "hospital", "name": "Rajiv Gandhi Cancer Institute and Research Center", "name:etymology:wikidata": "Q4593", "short_name": "RGCIRC"}}, {"type": "way", "id": 1028287673, "nodes": [9480291393, 11015331824, 9480291394, 9480291391]}, {"type": "way", "id": 1185889386, "nodes": [9480291391, 9480291392, 9480291393]}, {"type": "relation", "id": 16032221, "members": [{"type": "way", "ref": 1028287673, "role": "outer"}, {"type": "way", "ref": 1185889386, "role": "outer"}], "tags": {"addr:city": "New Delhi", "addr:postcode": "110085", "amenity": "hospital", "barrier": "wall", "healthcare": "hospital", "healthcare:speciality": "general;paediatrics;ophthalmology;intensive;orthopaedics;emergency;vaccination;maternity", "name": "Maharaja Agrasen Hospital", "name:etymology:wikidata": "Q2721961", "type": "multipolygon"}}]}